[
  {
    "description": "Human plumber who is always ready to save the princess.",
    "id": 1,
    "imageName": "mario",
    "name": "Mario",
    "coordinates": {
        "latitude": 40.650002,
        "longitude": -73.949997
    },
    "gameAppearance": ["Donkey Kong", "Super Mario Bros. Series", "Mario & Luigi Series", "Mario Kart Series", "Super Mario Maker", "Mario Party Series", "Super Smash Bros.", "Mario Odyssey", "Super Mario RPG", "Super Mario Wonder"]
  },
  {
    "description": "Mario's younger brother, even though he is way taller.",
    "id": 2,
    "imageName": "luigi",
    "name": "Luigi",
    "coordinates": {
        "latitude": 40.650002,
        "longitude": -73.949997
    },
    "gameAppearance": ["Super Mario Bros. Series", "Luigi's Mansion", "Mario Kart Series", "Mario Party Series","Mario & Luigi Series", "Super Smash Bros.", "New Super Luigi U", "Super Mario Wonder"]
  },
  {
    "description": "A green dinosaur who was hatches from an egg.",
    "id": 3,
    "imageName": "yoshi",
    "name": "Yoshi",
    "coordinates": {
        "latitude": 19.741755,
        "longitude": -155.844437
    },
    "gameAppearance": ["Super Mario Bros. Series", "Yoshi's Island", "Yoshi's Woolly World", "Yoshi's Crafted World", "Mario Kart Series", "Mario Party Series", "Super Smash Bros.", "Super Mario Wonder"]
  },
  {
    "description": "The almighty princess who is the leader of the Mushroom Kingdom.",
    "id": 4,
    "imageName": "peach",
    "name": "Peach",
    "coordinates": {
        "latitude": 51.501476,
        "longitude": -0.140634
    },
    "gameAppearance": ["Super Mario Bros. Series", "Mario & Luigi Series", "Mario Kart Series", "Super Mario Maker", "Mario Party Series", "Super Smash Bros.", "Mario Odyssey", "Super Mario RPG", "Super Mario Wonder"]
  },
  {
    "description": "She is the princess of Sarasaland. She once got kidnapped by aliens!",
    "id": 5,
    "imageName": "daisy",
    "name": "Daisy",
    "coordinates": {
        "latitude": 29.97583984489883,
        "longitude": 31.13135075655586
    },
    "gameAppearance": ["Super Mario Bros. Series", "Mario Kart Series", "Mario Party Series", "Super Smash Bros.", "Super Mario Wonder"]
  },
  {
    "description": "A fearless citizen of the Mushroom Kingdom.",
    "id": 6,
    "imageName": "toad",
    "name": "Toad",
    "coordinates": {
        "latitude": 51.501476,
        "longitude": -0.140634
    },
    "gameAppearance": ["Super Mario Bros. Series", "Mario & Luigi Series", "Captain Toad Series", "Mario Kart Series", "Mario Party Series", "Super Smash Bros.", "Mario Odyssey", "Super Mario RPG", "Super Mario Wonder"]
  },
  {
    "description": "A complete opposite version of Mario.",
    "id": 7,
    "imageName": "wario",
    "name": "Wario",
    "coordinates": {
        "latitude": -2.163106,
        "longitude": -55.126648
    },
    "gameAppearance": ["Wario's Wood", "Wario Blast Series", "WarioWare Series", "Wario Land", "Mario Kart Series", "Mario Party Series", "Super Smash Bros."]
  },
  {
    "description": "The only person who did not make it into Super Smash Bros.",
    "id": 8,
    "imageName": "waluigi",
    "name": "Waluigi",
    "coordinates": {
        "latitude": 36.188110,
        "longitude": -115.176468
    },
    "gameAppearance": ["Mario Tennis Series", "Mario Kart Series", "Mario Party Series", "Super Smash Bros."]
  },
  {
    "description": "Fearless, powerful warrior of the Kong Kingdom.",
    "id": 9,
    "imageName": "donkey-kong",
    "name": "Donkey Kong",
    "coordinates": {
        "latitude": 32.735316,
        "longitude": -117.149046
    },
    "gameAppearance": ["Donkey Kong", "Donkey Kong Country Series", "Mario Kart Series", "Mario Party Series", "Super Smash Bros.", "Super Mario RPG"]
  },
  {
    "description": "Donkey Kong's best friend, although some may say they are uncle and nephew.",
    "id": 10,
    "imageName": "diddy-kong",
    "name": "Diddy Kong",
    "coordinates": {
        "latitude": 32.735316,
        "longitude": -117.149046
    },
    "gameAppearance": ["Donkey Kong Country Series", "Mario Kart Series", "Mario Party Series", "Super Smash Bros.", "Super Mario RPG"]
  },
  {
    "description": "He does not belong here!",
    "id": 11,
    "imageName": "sonic",
    "name": "Sonic the hedgehog",
    "coordinates": {
        "latitude": 37.780079,
        "longitude": -122.420174
    },
    "gameAppearance": ["Sonic the Hedgehog Series", "Mario & Sonic Olympic Series", "Sonic Dash", "Sonic Racing", "Sonic Forces", "Sonic Mania", "Sonic Origins", "Sonic Frontiers", "Sonic Superstars"]
  },
  {
    "description": "Magical princess who has an intimate knowledge of the universe.",
    "id": 12,
    "imageName": "rosalina",
    "name": "Rosalina",
    "coordinates": {
        "latitude": 37.263056,
        "longitude": -115.79302
    },
    "gameAppearance": ["Super Mario Galaxy Series", "Super Mario 3D", "Mario Kart Series", "Mario Party Series", "Super Smash Bros."]
  },
  {
    "description": "City mayor, loves music. Donkey Kong once kidnapped her.",
    "id": 13,
    "imageName": "pauline",
    "name": "Pauline",
    "coordinates": {
        "latitude": 40.650002,
        "longitude": -73.949997
    },
    "gameAppearance": ["Donkey Kong", "Mario Odyssey", "Mario Party Series", "Super Smash Bros.", "Mario Tennis Series"]
  },
  {
    "description": "Toad's best friend. She is ready to take on any challenge.",
    "id": 14,
    "imageName": "toadette",
    "name": "Toadette",
    "coordinates": {
        "latitude": 51.501476,
        "longitude": -0.140634
    },
    "gameAppearance": ["Mario Kart Series", "Mario Party Series", "Super Mario 3D", "Super Mario New WiiU"]
  }
]
